[{"DateDonation":"2020-09-13T00:00:00","FromHour":"08:00","ToHour":"14:30","Name":"","City":"רמת גן","Street":"בית חולים תה\"ש","NumHouse":"","AccountType":" - שרותי הדם מד\"א","lon":34.842852,"lat":32.04671},{"DateDonation":"2020-09-13T00:00:00","FromHour":"09:30","ToHour":"15:00","Name":"ביה\"ח סורוקה ליד בית מרקחת מול חדר אוכל עובדים","City":"באר שבע","Street":"","NumHouse":"","AccountType":"","lon":34.791462,"lat":31.252973},{"DateDonation":"2020-09-13T00:00:00","FromHour":"14:00","ToHour":"19:00","Name":"קניון הסיטי","City":"אשדוד","Street":"הרצל פינת מנחם בגין","NumHouse":"","AccountType":"","lon":34.6403824,"lat":31.78944139999999},{"DateDonation":"2020-09-13T00:00:00","FromHour":"10:00","ToHour":"17:00","Name":"  ליד קניון נחמיה                                    ","City":"קרית שמונה","Street":"","NumHouse":"","AccountType":"","lon":35.570246,"lat":33.207933},{"DateDonation":"2020-09-13T00:00:00","FromHour":"17:00","ToHour":"22:00","Name":"מינהל קהילתי-בקעה רבתי","City":"ירושלים","Street":"יששכר","NumHouse":"3","AccountType":"","lon":35.2190213,"lat":31.7577874},{"DateDonation":"2020-09-13T00:00:00","FromHour":"09:30","ToHour":"15:30","Name":"משביר י-ם","City":"ירושלים","Street":"המלך ג'ורג'","NumHouse":"20","AccountType":"","lon":35.21602,"lat":31.78153},{"DateDonation":"2020-09-13T00:00:00","FromHour":"08:00","ToHour":"16:45","Name":"  המ'ג 7 רוממה                                       ","City":"ירושלים","Street":"המ\"ג","NumHouse":"7","AccountType":" - תחנת מד\"א","lon":35.1996482,"lat":31.7916038},{"DateDonation":"2020-09-13T00:00:00","FromHour":"16:00","ToHour":"21:00","Name":"חוצות המפרץ ליד גרג","City":"חיפה","Street":"","NumHouse":"","AccountType":"","lon":34.989571,"lat":32.7940463},{"DateDonation":"2020-09-13T00:00:00","FromHour":"09:00","ToHour":"15:00","Name":"חוצות המפרץ ליד גרג","City":"חיפה","Street":"","NumHouse":"","AccountType":"","lon":34.989571,"lat":32.7940463},{"DateDonation":"2020-09-13T00:00:00","FromHour":"09:00","ToHour":"15:00","Name":"בי\"ח רמב\"ם - קניון סגול","City":"חיפה","Street":"העליה השניה","NumHouse":"8","AccountType":"","lon":34.9854297,"lat":32.8320167},{"DateDonation":"2020-09-13T00:00:00","FromHour":"16:00","ToHour":"21:00","Name":"מתחם קניות מיקס חדרה ליד יינות ביתן","City":"חדרה","Street":"צה\"ל ","NumHouse":"35","AccountType":"","lon":34.9304744,"lat":32.4404641},{"DateDonation":"2020-09-13T00:00:00","FromHour":"10:00","ToHour":"17:00","Name":"תחנה מרכזית                               ","City":"עפולה","Street":"קהילת ציון ","NumHouse":"2","AccountType":"","lon":35.2923872,"lat":32.6079613},{"DateDonation":"2020-09-13T00:00:00","FromHour":"09:00","ToHour":"14:00","Name":"בנין מס הכנסה                                        ","City":"צפת","Street":"ויצמן","NumHouse":"20","AccountType":"","lon":35.49697829999999,"lat":32.9572386},{"DateDonation":"2020-09-13T00:00:00","FromHour":"09:30","ToHour":"17:00","Name":"  תחנה מרכזית                                  ","City":"באר שבע","Street":"יצחק בן צבי","NumHouse":"","AccountType":"","lon":34.797531,"lat":31.244006},{"DateDonation":"2020-09-14T00:00:00","FromHour":"09:30","ToHour":"15:00","Name":"  במרכז ליד הדואר                                    ","City":"פרדס חנה כרכור","Street":"","NumHouse":"","AccountType":"","lon":34.9742001,"lat":32.4728028},{"DateDonation":"2020-09-14T00:00:00","FromHour":"09:00","ToHour":"15:00","Name":"בי\"ח רמב\"ם - קניון סגול","City":"חיפה","Street":"העליה השניה","NumHouse":"8","AccountType":"","lon":34.9854297,"lat":32.8320167},{"DateDonation":"2020-09-14T00:00:00","FromHour":"16:00","ToHour":"22:00","Name":"פאתי כיכר רבין-אבן גבירול","City":"תל אביב יפו","Street":"מלכי ישראל פינת אבן גבירול","NumHouse":"","AccountType":"","lon":34.781357,"lat":32.079471},{"DateDonation":"2020-09-14T00:00:00","FromHour":"14:00","ToHour":"20:00","Name":"קניון T.L.V","City":"תל אביב יפו","Street":"החשמונאים","NumHouse":"96","AccountType":"","lon":34.7855231,"lat":32.0691568},{"DateDonation":"2020-09-14T00:00:00","FromHour":"09:00","ToHour":"15:00","Name":"מרכז חורב ליד מאפית אריאל","City":"חיפה","Street":"","NumHouse":"","AccountType":"","lon":34.989571,"lat":32.7940463},{"DateDonation":"2020-09-14T00:00:00","FromHour":"16:00","ToHour":"21:00","Name":"מרכז חורב ליד מאפית אריאל","City":"חיפה","Street":"","NumHouse":"","AccountType":"","lon":34.989571,"lat":32.7940463},{"DateDonation":"2020-09-14T00:00:00","FromHour":"10:00","ToHour":"20:30","Name":"משביר י-ם","City":"ירושלים","Street":"המלך ג'ורג'","NumHouse":"20","AccountType":"","lon":35.21602,"lat":31.78153},{"DateDonation":"2020-09-14T00:00:00","FromHour":"08:00","ToHour":"16:00","Name":"  המ'ג 7 רוממה                                       ","City":"ירושלים","Street":"המ\"ג","NumHouse":"7","AccountType":" - תחנת מד\"א","lon":35.1996482,"lat":31.7916038},{"DateDonation":"2020-09-14T00:00:00","FromHour":"08:00","ToHour":"14:30","Name":"","City":"רמת גן","Street":"בית חולים תה\"ש","NumHouse":"","AccountType":" - שרותי הדם מד\"א","lon":34.842852,"lat":32.04671},{"DateDonation":"2020-09-15T00:00:00","FromHour":"08:00","ToHour":"18:00","Name":"","City":"רמת גן","Street":"בית חולים תה\"ש","NumHouse":"","AccountType":" - שרותי הדם מד\"א","lon":34.842852,"lat":32.04671},{"DateDonation":"2020-09-15T00:00:00","FromHour":"16:00","ToHour":"19:00","Name":"התרמה במועדון","City":"שלומית","Street":"","NumHouse":"","AccountType":"","lon":34.8005087,"lat":32.0856289},{"DateDonation":"2020-09-15T00:00:00","FromHour":"13:00","ToHour":"20:00","Name":"  המ'ג 7 רוממה                                       ","City":"ירושלים","Street":"המ\"ג","NumHouse":"7","AccountType":" - תחנת מד\"א","lon":35.1996482,"lat":31.7916038},{"DateDonation":"2020-09-15T00:00:00","FromHour":"10:00","ToHour":"16:30","Name":"משביר י-ם","City":"ירושלים","Street":"המלך ג'ורג'","NumHouse":"20","AccountType":"","lon":35.21602,"lat":31.78153},{"DateDonation":"2020-09-15T00:00:00","FromHour":"17:00","ToHour":"22:00","Name":"מינהל קהילתי שכונת גילה","City":"ירושלים","Street":"","NumHouse":"","AccountType":"","lon":35.21371,"lat":31.768319},{"DateDonation":"2020-09-15T00:00:00","FromHour":"17:30","ToHour":"22:00","Name":"ביה\"ס מקור חיים","City":"ירושלים","Street":"יעקב בן דוב","NumHouse":"3","AccountType":"","lon":35.2139134,"lat":31.7550875},{"DateDonation":"2020-09-15T00:00:00","FromHour":"16:30","ToHour":"21:30","Name":"בארות יצחק","City":"בארות יצחק","Street":"","NumHouse":"","AccountType":"","lon":34.910221,"lat":32.042025},{"DateDonation":"2020-09-15T00:00:00","FromHour":"16:00","ToHour":"20:00","Name":"מועדון אמסטרדם","City":"גן נר","Street":"","NumHouse":"","AccountType":"","lon":35.336254,"lat":32.528706},{"DateDonation":"2020-09-15T00:00:00","FromHour":"16:00","ToHour":"20:00","Name":"  מועדון עינב                                        ","City":"אפיקים","Street":"","NumHouse":"","AccountType":"","lon":35.57773,"lat":32.680564},{"DateDonation":"2020-09-15T00:00:00","FromHour":"17:00","ToHour":"22:00","Name":"קרוואן ברחבה מתחת למגרש","City":"חיפה","Street":"חנה סנש","NumHouse":"25","AccountType":"","lon":34.99808090000001,"lat":32.8004492},{"DateDonation":"2020-09-15T00:00:00","FromHour":"16:00","ToHour":"20:00","Name":"  מועדון                                             ","City":"חד נס","Street":"","NumHouse":"","AccountType":"","lon":35.641408,"lat":32.927514},{"DateDonation":"2020-09-15T00:00:00","FromHour":"17:00","ToHour":"22:00","Name":"משמר אזרחי פלורנטין ת\"א","City":"תל אביב יפו","Street":"שד' ושינגטון","NumHouse":"22","AccountType":"","lon":34.7694646,"lat":32.055594},{"DateDonation":"2020-09-15T00:00:00","FromHour":"16:00","ToHour":"22:00","Name":"קאנטרי ל","City":"תל אביב יפו","Street":"יהודה בורלא","NumHouse":"31","AccountType":"","lon":34.7902072,"lat":32.1092605},{"DateDonation":"2020-09-15T00:00:00","FromHour":"12:00","ToHour":"19:00","Name":"  תחנה מרכזית                                  ","City":"באר שבע","Street":"יצחק בן צבי","NumHouse":"","AccountType":"","lon":34.797531,"lat":31.244006},{"DateDonation":"2020-09-16T00:00:00","FromHour":"17:00","ToHour":"21:00","Name":"  מרפאת חרום                                         ","City":"מטולה","Street":"","NumHouse":"","AccountType":"","lon":35.578235,"lat":33.277232},{"DateDonation":"2020-09-16T00:00:00","FromHour":"10:00","ToHour":"16:30","Name":"משביר י-ם","City":"ירושלים","Street":"המלך ג'ורג'","NumHouse":"20","AccountType":"","lon":35.21602,"lat":31.78153},{"DateDonation":"2020-09-16T00:00:00","FromHour":"08:00","ToHour":"14:30","Name":"","City":"רמת גן","Street":"בית חולים תה\"ש","NumHouse":"","AccountType":" - שרותי הדם מד\"א","lon":34.842852,"lat":32.04671},{"DateDonation":"2020-09-17T00:00:00","FromHour":"08:00","ToHour":"14:30","Name":"","City":"רמת גן","Street":"בית חולים תה\"ש","NumHouse":"","AccountType":" - שרותי הדם מד\"א","lon":34.842852,"lat":32.04671},{"DateDonation":"2020-09-17T00:00:00","FromHour":"15:00","ToHour":"20:00","Name":"לובי חדר אוכל                                      ","City":"שדה נחמיה","Street":"","NumHouse":"","AccountType":"","lon":35.62307,"lat":33.188234},{"DateDonation":"2020-09-17T00:00:00","FromHour":"17:00","ToHour":"21:00","Name":"בית הכנסת","City":"הסוללים","Street":"","NumHouse":"","AccountType":"","lon":35.238022,"lat":32.751802},{"DateDonation":"2020-09-17T00:00:00","FromHour":"16:00","ToHour":"22:00","Name":"  ביהכנ קהילה                                        ","City":"צור הדסה","Street":"","NumHouse":"","AccountType":"","lon":35.096958,"lat":31.719374},{"DateDonation":"2020-09-17T00:00:00","FromHour":"10:00","ToHour":"16:30","Name":"משביר י-ם","City":"ירושלים","Street":"המלך ג'ורג'","NumHouse":"20","AccountType":"","lon":35.21602,"lat":31.78153},{"DateDonation":"2020-09-18T00:00:00","FromHour":"09:00","ToHour":"12:45","Name":"משביר י-ם","City":"ירושלים","Street":"המלך ג'ורג'","NumHouse":"20","AccountType":"","lon":35.21602,"lat":31.78153},{"DateDonation":"2020-09-18T00:00:00","FromHour":"08:00","ToHour":"12:30","Name":"  המ'ג 7 רוממה                                       ","City":"ירושלים","Street":"המ\"ג","NumHouse":"7","AccountType":" - תחנת מד\"א","lon":35.1996482,"lat":31.7916038},{"DateDonation":"2020-09-18T00:00:00","FromHour":"08:00","ToHour":"12:30","Name":"","City":"רחובות","Street":"0363","NumHouse":"69","AccountType":" - תחנת מד\"א","lon":34.811272,"lat":31.892773},{"DateDonation":"2020-09-18T00:00:00","FromHour":"08:00","ToHour":"12:30","Name":"","City":"רמת גן","Street":"בית חולים תה\"ש","NumHouse":"","AccountType":" - שרותי הדם מד\"א","lon":34.842852,"lat":32.04671},{"DateDonation":"2020-09-18T00:00:00","FromHour":"08:00","ToHour":"12:30","Name":"","City":"חיפה","Street":"יצחק שדה","NumHouse":"10","AccountType":" - תחנת מד\"א","lon":34.9882598,"lat":32.824678},{"DateDonation":"2020-09-18T00:00:00","FromHour":"08:00","ToHour":"12:30","Name":"","City":"חולון","Street":"הרוקמים","NumHouse":"1","AccountType":" - תחנת מד\"א","lon":34.7967928,"lat":32.0108836},{"DateDonation":"2020-09-18T00:00:00","FromHour":"08:00","ToHour":"12:30","Name":"","City":"קרית מוצקין","Street":"החשמונאים","NumHouse":"75","AccountType":" - תחנת מד\"א","lon":35.0802042,"lat":32.8440668},{"DateDonation":"2020-09-18T00:00:00","FromHour":"08:30","ToHour":"13:00","Name":"  תחנה מרכזית                                  ","City":"באר שבע","Street":"יצחק בן צבי","NumHouse":"","AccountType":"","lon":34.797531,"lat":31.244006},{"DateDonation":"2020-09-18T00:00:00","FromHour":"08:30","ToHour":"12:30","Name":"תחנת מגן דוד אדום","City":"טבריה","Street":"הבנים מול מלון לאונרדו","NumHouse":"1","AccountType":" - תחנת מד\"א","lon":35.5429317,"lat":32.7858998},{"DateDonation":"2020-09-21T00:00:00","FromHour":"09:30","ToHour":"17:00","Name":"  תחנה מרכזית                                  ","City":"באר שבע","Street":"יצחק בן צבי","NumHouse":"","AccountType":"","lon":34.797531,"lat":31.244006},{"DateDonation":"2020-09-21T00:00:00","FromHour":"16:30","ToHour":"19:00","Name":"התרמה במועדון","City":"אור הנר","Street":"","NumHouse":"","AccountType":"","lon":34.602305,"lat":31.556197},{"DateDonation":"2020-09-21T00:00:00","FromHour":"08:00","ToHour":"14:30","Name":"","City":"רמת גן","Street":"בית חולים תה\"ש","NumHouse":"","AccountType":" - שרותי הדם מד\"א","lon":34.842852,"lat":32.04671},{"DateDonation":"2020-09-21T00:00:00","FromHour":"10:00","ToHour":"16:30","Name":"משביר י-ם","City":"ירושלים","Street":"המלך ג'ורג'","NumHouse":"20","AccountType":"","lon":35.21602,"lat":31.78153},{"DateDonation":"2020-09-22T00:00:00","FromHour":"13:00","ToHour":"20:00","Name":"  המ'ג 7 רוממה                                       ","City":"ירושלים","Street":"המ\"ג","NumHouse":"7","AccountType":" - תחנת מד\"א","lon":35.1996482,"lat":31.7916038},{"DateDonation":"2020-09-22T00:00:00","FromHour":"10:00","ToHour":"16:30","Name":"משביר י-ם","City":"ירושלים","Street":"המלך ג'ורג'","NumHouse":"20","AccountType":"","lon":35.21602,"lat":31.78153},{"DateDonation":"2020-09-22T00:00:00","FromHour":"17:00","ToHour":"20:30","Name":"מועדון לחבר","City":"רמת רחל","Street":"","NumHouse":"","AccountType":"","lon":35.2178825,"lat":31.7403163},{"DateDonation":"2020-09-22T00:00:00","FromHour":"08:00","ToHour":"18:00","Name":"","City":"רמת גן","Street":"בית חולים תה\"ש","NumHouse":"","AccountType":" - שרותי הדם מד\"א","lon":34.842852,"lat":32.04671},{"DateDonation":"2020-09-22T00:00:00","FromHour":"10:00","ToHour":"16:00","Name":"","City":"תל אביב יפו","Street":"דרך מנחם בגין","NumHouse":"125","AccountType":"","lon":34.7891528,"lat":32.0729837},{"DateDonation":"2020-09-22T00:00:00","FromHour":"10:00","ToHour":"16:00","Name":"מגדל חברה לביטוח פ\"ת","City":"פתח תקווה","Street":"היצירה","NumHouse":"2","AccountType":"","lon":34.8498777,"lat":32.0929626},{"DateDonation":"2020-09-23T00:00:00","FromHour":"10:00","ToHour":"16:00","Name":"מגדל חברה לביטוח פ\"ת","City":"פתח תקווה","Street":"היצירה","NumHouse":"2","AccountType":"","lon":34.8498777,"lat":32.0929626},{"DateDonation":"2020-09-23T00:00:00","FromHour":"08:00","ToHour":"14:30","Name":"","City":"רמת גן","Street":"בית חולים תה\"ש","NumHouse":"","AccountType":" - שרותי הדם מד\"א","lon":34.842852,"lat":32.04671},{"DateDonation":"2020-09-23T00:00:00","FromHour":"16:00","ToHour":"21:00","Name":"  מועדון                                             ","City":"יעד","Street":"","NumHouse":"","AccountType":"","lon":35.24064,"lat":32.881225},{"DateDonation":"2020-09-23T00:00:00","FromHour":"16:00","ToHour":"20:00","Name":"  מועדון                                             ","City":"יראון","Street":"","NumHouse":"","AccountType":"","lon":35.454291,"lat":33.077239},{"DateDonation":"2020-09-23T00:00:00","FromHour":"10:00","ToHour":"16:30","Name":"משביר י-ם","City":"ירושלים","Street":"המלך ג'ורג'","NumHouse":"20","AccountType":"","lon":35.21602,"lat":31.78153},{"DateDonation":"2020-09-23T00:00:00","FromHour":"09:00","ToHour":"16:00","Name":"  המ'ג 7 רוממה                                       ","City":"ירושלים","Street":"המ\"ג","NumHouse":"7","AccountType":" - תחנת מד\"א","lon":35.1996482,"lat":31.7916038},{"DateDonation":"2020-09-24T00:00:00","FromHour":"09:00","ToHour":"16:00","Name":"  המ'ג 7 רוממה                                       ","City":"ירושלים","Street":"המ\"ג","NumHouse":"7","AccountType":" - תחנת מד\"א","lon":35.1996482,"lat":31.7916038},{"DateDonation":"2020-09-24T00:00:00","FromHour":"10:00","ToHour":"16:30","Name":"משביר י-ם","City":"ירושלים","Street":"המלך ג'ורג'","NumHouse":"20","AccountType":"","lon":35.21602,"lat":31.78153},{"DateDonation":"2020-09-24T00:00:00","FromHour":"15:00","ToHour":"21:30","Name":"חטיבת אלכסנדרוני ","City":"רמת השרון","Street":"בניינים במעגל 1-12","NumHouse":"","AccountType":"","lon":34.840278,"lat":32.137793},{"DateDonation":"2020-09-24T00:00:00","FromHour":"08:00","ToHour":"14:30","Name":"","City":"רמת גן","Street":"בית חולים תה\"ש","NumHouse":"","AccountType":" - שרותי הדם מד\"א","lon":34.842852,"lat":32.04671},{"DateDonation":"2020-09-24T00:00:00","FromHour":"17:30","ToHour":"22:30","Name":"חלמיש-נווצ צוף","City":"חלמיש","Street":"","NumHouse":"","AccountType":"","lon":35.128876,"lat":32.008313},{"DateDonation":"2020-09-24T00:00:00","FromHour":"18:00","ToHour":"22:00","Name":"  בית הקהילה                                         ","City":"בית חורון","Street":"","NumHouse":"","AccountType":"","lon":35.124097,"lat":31.87989},{"DateDonation":"2020-09-25T00:00:00","FromHour":"08:30","ToHour":"12:30","Name":"תחנת מגן דוד אדום","City":"טבריה","Street":"הבנים מול מלון לאונרדו","NumHouse":"1","AccountType":" - תחנת מד\"א","lon":35.5429317,"lat":32.7858998},{"DateDonation":"2020-09-25T00:00:00","FromHour":"09:00","ToHour":"13:30","Name":"כורזין ליד בנק הפועלים","City":"גבעתיים","Street":"כורזין","NumHouse":"","AccountType":"","lon":34.816523,"lat":32.0596894},{"DateDonation":"2020-09-25T00:00:00","FromHour":"08:30","ToHour":"14:00","Name":"קניון איילון-שער ירקון","City":"רמת גן","Street":"","NumHouse":"","AccountType":"","lon":34.824785,"lat":32.068424},{"DateDonation":"2020-09-25T00:00:00","FromHour":"08:00","ToHour":"12:30","Name":"","City":"רמת גן","Street":"בית חולים תה\"ש","NumHouse":"","AccountType":" - שרותי הדם מד\"א","lon":34.842852,"lat":32.04671},{"DateDonation":"2020-09-25T00:00:00","FromHour":"08:00","ToHour":"12:30","Name":"","City":"חולון","Street":"הרוקמים","NumHouse":"1","AccountType":" - תחנת מד\"א","lon":34.7967928,"lat":32.0108836},{"DateDonation":"2020-09-25T00:00:00","FromHour":"08:00","ToHour":"12:30","Name":"","City":"חיפה","Street":"יצחק שדה","NumHouse":"10","AccountType":" - תחנת מד\"א","lon":34.9882598,"lat":32.824678},{"DateDonation":"2020-09-25T00:00:00","FromHour":"08:00","ToHour":"12:30","Name":"","City":"קרית מוצקין","Street":"החשמונאים","NumHouse":"75","AccountType":" - תחנת מד\"א","lon":35.0802042,"lat":32.8440668},{"DateDonation":"2020-09-25T00:00:00","FromHour":"08:00","ToHour":"12:30","Name":"","City":"רחובות","Street":"0363","NumHouse":"69","AccountType":" - תחנת מד\"א","lon":34.811272,"lat":31.892773},{"DateDonation":"2020-09-25T00:00:00","FromHour":"09:00","ToHour":"12:45","Name":"משביר י-ם","City":"ירושלים","Street":"המלך ג'ורג'","NumHouse":"20","AccountType":"","lon":35.21602,"lat":31.78153},{"DateDonation":"2020-09-25T00:00:00","FromHour":"08:00","ToHour":"12:30","Name":"  המ'ג 7 רוממה                                       ","City":"ירושלים","Street":"המ\"ג","NumHouse":"7","AccountType":" - תחנת מד\"א","lon":35.1996482,"lat":31.7916038},{"DateDonation":"2020-09-27T00:00:00","FromHour":"08:00","ToHour":"16:45","Name":"  המ'ג 7 רוממה                                       ","City":"ירושלים","Street":"המ\"ג","NumHouse":"7","AccountType":" - תחנת מד\"א","lon":35.1996482,"lat":31.7916038},{"DateDonation":"2020-09-27T00:00:00","FromHour":"10:00","ToHour":"16:30","Name":"משביר י-ם","City":"ירושלים","Street":"המלך ג'ורג'","NumHouse":"20","AccountType":"","lon":35.21602,"lat":31.78153},{"DateDonation":"2020-09-27T00:00:00","FromHour":"08:00","ToHour":"14:30","Name":"","City":"רמת גן","Street":"בית חולים תה\"ש","NumHouse":"","AccountType":" - שרותי הדם מד\"א","lon":34.842852,"lat":32.04671},{"DateDonation":"2020-09-29T00:00:00","FromHour":"08:00","ToHour":"18:00","Name":"","City":"רמת גן","Street":"בית חולים תה\"ש","NumHouse":"","AccountType":" - שרותי הדם מד\"א","lon":34.842852,"lat":32.04671},{"DateDonation":"2020-09-29T00:00:00","FromHour":"12:00","ToHour":"20:00","Name":"משביר י-ם","City":"ירושלים","Street":"המלך ג'ורג'","NumHouse":"20","AccountType":"","lon":35.21602,"lat":31.78153},{"DateDonation":"2020-09-29T00:00:00","FromHour":"13:00","ToHour":"20:00","Name":"  המ'ג 7 רוממה                                       ","City":"ירושלים","Street":"המ\"ג","NumHouse":"7","AccountType":" - תחנת מד\"א","lon":35.1996482,"lat":31.7916038},{"DateDonation":"2020-09-30T00:00:00","FromHour":"09:00","ToHour":"16:00","Name":"  המ'ג 7 רוממה                                       ","City":"ירושלים","Street":"המ\"ג","NumHouse":"7","AccountType":" - תחנת מד\"א","lon":35.1996482,"lat":31.7916038},{"DateDonation":"2020-09-30T00:00:00","FromHour":"10:00","ToHour":"16:30","Name":"משביר י-ם","City":"ירושלים","Street":"המלך ג'ורג'","NumHouse":"20","AccountType":"","lon":35.21602,"lat":31.78153},{"DateDonation":"2020-09-30T00:00:00","FromHour":"08:00","ToHour":"14:30","Name":"","City":"רמת גן","Street":"בית חולים תה\"ש","NumHouse":"","AccountType":" - שרותי הדם מד\"א","lon":34.842852,"lat":32.04671},{"DateDonation":"2020-10-01T00:00:00","FromHour":"08:00","ToHour":"14:30","Name":"","City":"רמת גן","Street":"בית חולים תה\"ש","NumHouse":"","AccountType":" - שרותי הדם מד\"א","lon":34.842852,"lat":32.04671},{"DateDonation":"2020-10-01T00:00:00","FromHour":"11:00","ToHour":"20:00","Name":"משביר י-ם","City":"ירושלים","Street":"המלך ג'ורג'","NumHouse":"20","AccountType":"","lon":35.21602,"lat":31.78153},{"DateDonation":"2020-10-01T00:00:00","FromHour":"15:00","ToHour":"20:00","Name":"  מפגש                                               ","City":"כפר הנשיא","Street":"","NumHouse":"","AccountType":"","lon":35.602308,"lat":32.97466},{"DateDonation":"2020-10-01T00:00:00","FromHour":"16:00","ToHour":"22:00","Name":"מתנ\"ס עלי","City":"עלי","Street":"","NumHouse":"","AccountType":"","lon":35.266859,"lat":32.071177},{"DateDonation":"2020-10-02T00:00:00","FromHour":"08:00","ToHour":"12:30","Name":"","City":"פתח תקווה","Street":"המכבים","NumHouse":"30","AccountType":" - תחנת מד\"א","lon":34.8865866,"lat":32.0975083},{"DateDonation":"2020-10-02T00:00:00","FromHour":"09:00","ToHour":"12:45","Name":"משביר י-ם","City":"ירושלים","Street":"המלך ג'ורג'","NumHouse":"20","AccountType":"","lon":35.21602,"lat":31.78153},{"DateDonation":"2020-10-02T00:00:00","FromHour":"08:00","ToHour":"12:30","Name":"","City":"רמת גן","Street":"בית חולים תה\"ש","NumHouse":"","AccountType":" - שרותי הדם מד\"א","lon":34.842852,"lat":32.04671},{"DateDonation":"2020-10-02T00:00:00","FromHour":"08:00","ToHour":"12:30","Name":"","City":"רחובות","Street":"0363","NumHouse":"69","AccountType":" - תחנת מד\"א","lon":34.811272,"lat":31.892773},{"DateDonation":"2020-10-02T00:00:00","FromHour":"08:00","ToHour":"12:30","Name":"","City":"קרית מוצקין","Street":"החשמונאים","NumHouse":"75","AccountType":" - תחנת מד\"א","lon":35.0802042,"lat":32.8440668},{"DateDonation":"2020-10-02T00:00:00","FromHour":"08:30","ToHour":"12:30","Name":"","City":"נתניה","Street":"מינץ","NumHouse":"7","AccountType":" - תחנת מד\"א","lon":34.8645215,"lat":32.3284579},{"DateDonation":"2020-10-02T00:00:00","FromHour":"08:00","ToHour":"12:30","Name":"","City":"ירושלים","Street":"המ\"ג","NumHouse":"7","AccountType":" - תחנת מד\"א","lon":35.1996482,"lat":31.7916038},{"DateDonation":"2020-10-02T00:00:00","FromHour":"08:00","ToHour":"12:30","Name":"","City":"כפר סבא","Street":"טשרנחובסקי","NumHouse":"51","AccountType":" - תחנת מד\"א","lon":34.8965718,"lat":32.1803678},{"DateDonation":"2020-10-02T00:00:00","FromHour":"08:00","ToHour":"12:30","Name":"","City":"אשקלון","Street":"התחיה","NumHouse":"1","AccountType":" - תחנת מד\"א","lon":34.5893259,"lat":31.6599003},{"DateDonation":"2020-10-04T00:00:00","FromHour":"08:00","ToHour":"14:30","Name":"","City":"רמת גן","Street":"בית חולים תה\"ש","NumHouse":"","AccountType":" - שרותי הדם מד\"א","lon":34.842852,"lat":32.04671},{"DateDonation":"2020-10-04T00:00:00","FromHour":"08:00","ToHour":"16:00","Name":"  המ\"ג רוממה 7                                       ","City":"ירושלים","Street":"המ\"ג","NumHouse":"7","AccountType":" - תחנת מד\"א","lon":35.1996482,"lat":31.7916038},{"DateDonation":"2020-10-04T00:00:00","FromHour":"10:00","ToHour":"20:00","Name":"משביר י-ם","City":"ירושלים","Street":"המלך ג'ורג'","NumHouse":"20","AccountType":"","lon":35.21602,"lat":31.78153},{"DateDonation":"2020-10-05T00:00:00","FromHour":"11:00","ToHour":"18:00","Name":"  המ'ג 7 רוממה                                       ","City":"ירושלים","Street":"המ\"ג","NumHouse":"7","AccountType":" - תחנת מד\"א","lon":35.1996482,"lat":31.7916038},{"DateDonation":"2020-10-05T00:00:00","FromHour":"10:00","ToHour":"20:00","Name":"משביר י-ם","City":"ירושלים","Street":"המלך ג'ורג'","NumHouse":"20","AccountType":"","lon":35.21602,"lat":31.78153},{"DateDonation":"2020-10-05T00:00:00","FromHour":"08:00","ToHour":"14:30","Name":"","City":"רמת גן","Street":"בית חולים תה\"ש","NumHouse":"","AccountType":" - שרותי הדם מד\"א","lon":34.842852,"lat":32.04671},{"DateDonation":"2020-10-06T00:00:00","FromHour":"08:00","ToHour":"18:00","Name":"","City":"רמת גן","Street":"בית חולים תה\"ש","NumHouse":"","AccountType":" - שרותי הדם מד\"א","lon":34.842852,"lat":32.04671},{"DateDonation":"2020-10-06T00:00:00","FromHour":"13:00","ToHour":"20:00","Name":"  המ\"ג רוממה 7                                       ","City":"ירושלים","Street":"המ\"ג","NumHouse":"7","AccountType":" - תחנת מד\"א","lon":35.1996482,"lat":31.7916038},{"DateDonation":"2020-10-06T00:00:00","FromHour":"10:00","ToHour":"20:00","Name":"משביר י-ם","City":"ירושלים","Street":"המלך ג'ורג'","NumHouse":"20","AccountType":"","lon":35.21602,"lat":31.78153},{"DateDonation":"2020-10-07T00:00:00","FromHour":"11:00","ToHour":"18:00","Name":"  המ'ג 7 רוממה                                       ","City":"ירושלים","Street":"המ\"ג","NumHouse":"7","AccountType":" - תחנת מד\"א","lon":35.1996482,"lat":31.7916038},{"DateDonation":"2020-10-07T00:00:00","FromHour":"10:00","ToHour":"20:00","Name":"משביר י-ם","City":"ירושלים","Street":"המלך ג'ורג'","NumHouse":"20","AccountType":"","lon":35.21602,"lat":31.78153},{"DateDonation":"2020-10-07T00:00:00","FromHour":"08:00","ToHour":"14:30","Name":"","City":"רמת גן","Street":"בית חולים תה\"ש","NumHouse":"","AccountType":" - שרותי הדם מד\"א","lon":34.842852,"lat":32.04671},{"DateDonation":"2020-10-08T00:00:00","FromHour":"08:00","ToHour":"14:30","Name":"","City":"רמת גן","Street":"בית חולים תה\"ש","NumHouse":"","AccountType":" - שרותי הדם מד\"א","lon":34.842852,"lat":32.04671},{"DateDonation":"2020-10-08T00:00:00","FromHour":"11:00","ToHour":"18:00","Name":"  המ'ג 7 רוממה                                       ","City":"ירושלים","Street":"המ\"ג","NumHouse":"7","AccountType":" - תחנת מד\"א","lon":35.1996482,"lat":31.7916038},{"DateDonation":"2020-10-08T00:00:00","FromHour":"10:00","ToHour":"20:00","Name":"משביר י-ם","City":"ירושלים","Street":"המלך ג'ורג'","NumHouse":"20","AccountType":"","lon":35.21602,"lat":31.78153},{"DateDonation":"2020-10-09T00:00:00","FromHour":"08:00","ToHour":"12:30","Name":"  המ\"ג רוממה 7                                       ","City":"ירושלים","Street":"המ\"ג","NumHouse":"7","AccountType":" - תחנת מד\"א","lon":35.1996482,"lat":31.7916038},{"DateDonation":"2020-10-09T00:00:00","FromHour":"09:00","ToHour":"12:45","Name":"משביר י-ם","City":"ירושלים","Street":"המלך ג'ורג'","NumHouse":"20","AccountType":"","lon":35.21602,"lat":31.78153},{"DateDonation":"2020-10-09T00:00:00","FromHour":"08:00","ToHour":"12:30","Name":"","City":"פתח תקווה","Street":"המכבים","NumHouse":"30","AccountType":" - תחנת מד\"א","lon":34.8865866,"lat":32.0975083},{"DateDonation":"2020-10-09T00:00:00","FromHour":"08:00","ToHour":"12:30","Name":"","City":"רחובות","Street":"0363","NumHouse":"69","AccountType":" - תחנת מד\"א","lon":34.811272,"lat":31.892773},{"DateDonation":"2020-10-09T00:00:00","FromHour":"08:00","ToHour":"12:30","Name":"","City":"רמת גן","Street":"בית חולים תה\"ש","NumHouse":"","AccountType":" - שרותי הדם מד\"א","lon":34.842852,"lat":32.04671},{"DateDonation":"2020-10-09T00:00:00","FromHour":"08:00","ToHour":"12:30","Name":"","City":"כפר סבא","Street":"טשרנחובסקי","NumHouse":"51","AccountType":" - תחנת מד\"א","lon":34.8965718,"lat":32.1803678},{"DateDonation":"2020-10-09T00:00:00","FromHour":"08:00","ToHour":"12:30","Name":"","City":"אשקלון","Street":"התחיה","NumHouse":"1","AccountType":" - תחנת מד\"א","lon":34.5893259,"lat":31.6599003},{"DateDonation":"2020-10-09T00:00:00","FromHour":"08:00","ToHour":"12:30","Name":"","City":"קרית מוצקין","Street":"החשמונאים","NumHouse":"75","AccountType":" - תחנת מד\"א","lon":35.0802042,"lat":32.8440668},{"DateDonation":"2020-10-09T00:00:00","FromHour":"08:30","ToHour":"12:30","Name":"","City":"נתניה","Street":"מינץ","NumHouse":"7","AccountType":" - תחנת מד\"א","lon":34.8645215,"lat":32.3284579},{"DateDonation":"2020-10-11T00:00:00","FromHour":"08:00","ToHour":"14:30","Name":"","City":"רמת גן","Street":"בית חולים תה\"ש","NumHouse":"","AccountType":" - שרותי הדם מד\"א","lon":34.842852,"lat":32.04671},{"DateDonation":"2020-10-11T00:00:00","FromHour":"14:30","ToHour":"21:00","Name":"קרית עקרון                                       ","City":"קרית עקרון","Street":"הרצל","NumHouse":"44","AccountType":"","lon":34.8224781,"lat":31.8607337},{"DateDonation":"2020-10-11T00:00:00","FromHour":"10:00","ToHour":"16:30","Name":"משביר י-ם","City":"ירושלים","Street":"המלך ג'ורג'","NumHouse":"20","AccountType":"","lon":35.21602,"lat":31.78153},{"DateDonation":"2020-10-11T00:00:00","FromHour":"17:00","ToHour":"22:00","Name":"  אולם צור חגי                                       ","City":"אפרת","Street":"","NumHouse":"","AccountType":"","lon":35.149934,"lat":31.653589},{"DateDonation":"2020-10-12T00:00:00","FromHour":"10:00","ToHour":"16:30","Name":"משביר י-ם","City":"ירושלים","Street":"המלך ג'ורג'","NumHouse":"20","AccountType":"","lon":35.21602,"lat":31.78153},{"DateDonation":"2020-10-12T00:00:00","FromHour":"08:00","ToHour":"14:30","Name":"","City":"רמת גן","Street":"בית חולים תה\"ש","NumHouse":"","AccountType":" - שרותי הדם מד\"א","lon":34.842852,"lat":32.04671},{"DateDonation":"2020-10-13T00:00:00","FromHour":"08:00","ToHour":"18:00","Name":"","City":"רמת גן","Street":"בית חולים תה\"ש","NumHouse":"","AccountType":" - שרותי הדם מד\"א","lon":34.842852,"lat":32.04671},{"DateDonation":"2020-10-13T00:00:00","FromHour":"10:00","ToHour":"16:30","Name":"משביר י-ם","City":"ירושלים","Street":"המלך ג'ורג'","NumHouse":"20","AccountType":"","lon":35.21602,"lat":31.78153},{"DateDonation":"2020-10-14T00:00:00","FromHour":"16:00","ToHour":"21:30","Name":"בית גיורא-קרית היובל","City":"ירושלים","Street":"אהרון רבינוביץ","NumHouse":"33","AccountType":"","lon":35.1747988,"lat":31.7616184},{"DateDonation":"2020-10-14T00:00:00","FromHour":"10:00","ToHour":"16:30","Name":"משביר י-ם","City":"ירושלים","Street":"המלך ג'ורג'","NumHouse":"20","AccountType":"","lon":35.21602,"lat":31.78153},{"DateDonation":"2020-10-14T00:00:00","FromHour":"08:00","ToHour":"14:30","Name":"","City":"רמת גן","Street":"בית חולים תה\"ש","NumHouse":"","AccountType":" - שרותי הדם מד\"א","lon":34.842852,"lat":32.04671},{"DateDonation":"2020-10-15T00:00:00","FromHour":"08:00","ToHour":"14:30","Name":"","City":"רמת גן","Street":"בית חולים תה\"ש","NumHouse":"","AccountType":" - שרותי הדם מד\"א","lon":34.842852,"lat":32.04671},{"DateDonation":"2020-10-15T00:00:00","FromHour":"10:00","ToHour":"16:30","Name":"משביר י-ם","City":"ירושלים","Street":"המלך ג'ורג'","NumHouse":"20","AccountType":"","lon":35.21602,"lat":31.78153},{"DateDonation":"2020-10-16T00:00:00","FromHour":"08:00","ToHour":"12:30","Name":"","City":"פתח תקווה","Street":"המכבים","NumHouse":"30","AccountType":" - תחנת מד\"א","lon":34.8865866,"lat":32.0975083},{"DateDonation":"2020-10-16T00:00:00","FromHour":"08:00","ToHour":"12:30","Name":"","City":"רמת גן","Street":"בית חולים תה\"ש","NumHouse":"","AccountType":" - שרותי הדם מד\"א","lon":34.842852,"lat":32.04671},{"DateDonation":"2020-10-16T00:00:00","FromHour":"08:00","ToHour":"12:30","Name":"","City":"קרית מוצקין","Street":"החשמונאים","NumHouse":"75","AccountType":" - תחנת מד\"א","lon":35.0802042,"lat":32.8440668},{"DateDonation":"2020-10-16T00:00:00","FromHour":"08:00","ToHour":"12:30","Name":"","City":"רחובות","Street":"0363","NumHouse":"69","AccountType":" - תחנת מד\"א","lon":34.811272,"lat":31.892773},{"DateDonation":"2020-10-16T00:00:00","FromHour":"08:30","ToHour":"12:30","Name":"","City":"נתניה","Street":"מינץ","NumHouse":"7","AccountType":" - תחנת מד\"א","lon":34.8645215,"lat":32.3284579},{"DateDonation":"2020-10-16T00:00:00","FromHour":"08:00","ToHour":"12:30","Name":"","City":"אשקלון","Street":"התחיה","NumHouse":"1","AccountType":" - תחנת מד\"א","lon":34.5893259,"lat":31.6599003},{"DateDonation":"2020-10-16T00:00:00","FromHour":"08:00","ToHour":"12:30","Name":"","City":"כפר סבא","Street":"טשרנחובסקי","NumHouse":"51","AccountType":" - תחנת מד\"א","lon":34.8965718,"lat":32.1803678},{"DateDonation":"2020-10-16T00:00:00","FromHour":"09:00","ToHour":"12:45","Name":"משביר י-ם","City":"ירושלים","Street":"המלך ג'ורג'","NumHouse":"20","AccountType":"","lon":35.21602,"lat":31.78153},{"DateDonation":"2020-10-16T00:00:00","FromHour":"09:00","ToHour":"13:30","Name":"כורזין ליד בנק הפועלים","City":"גבעתיים","Street":"כורזין","NumHouse":"","AccountType":"","lon":34.816523,"lat":32.0596894},{"DateDonation":"2020-10-16T00:00:00","FromHour":"08:30","ToHour":"14:00","Name":"רחבת הבנים                                     ","City":"הוד השרון","Street":"הבנים","NumHouse":"","AccountType":"","lon":34.8845912,"lat":32.1562671},{"DateDonation":"2020-10-16T00:00:00","FromHour":"08:30","ToHour":"14:00","Name":"  מגדיאל                                             ","City":"הוד השרון","Street":"מגדיאל","NumHouse":"67","AccountType":"","lon":34.9023055,"lat":32.1602771},{"DateDonation":"2020-10-16T00:00:00","FromHour":"08:30","ToHour":"14:00","Name":"רחבת הבנים                                     ","City":"הוד השרון","Street":"הבנים","NumHouse":"","AccountType":"","lon":34.8845912,"lat":32.1562671},{"DateDonation":"2020-10-18T00:00:00","FromHour":"10:00","ToHour":"16:30","Name":"משביר י-ם","City":"ירושלים","Street":"המלך ג'ורג'","NumHouse":"20","AccountType":"","lon":35.21602,"lat":31.78153},{"DateDonation":"2020-10-18T00:00:00","FromHour":"08:00","ToHour":"14:30","Name":"","City":"רמת גן","Street":"בית חולים תה\"ש","NumHouse":"","AccountType":" - שרותי הדם מד\"א","lon":34.842852,"lat":32.04671},{"DateDonation":"2020-10-19T00:00:00","FromHour":"08:00","ToHour":"14:30","Name":"","City":"רמת גן","Street":"בית חולים תה\"ש","NumHouse":"","AccountType":" - שרותי הדם מד\"א","lon":34.842852,"lat":32.04671},{"DateDonation":"2020-10-19T00:00:00","FromHour":"16:00","ToHour":"20:00","Name":"  מועדון                                             ","City":"משגב עם","Street":"","NumHouse":"","AccountType":"","lon":35.548499,"lat":33.247572},{"DateDonation":"2020-10-19T00:00:00","FromHour":"16:00","ToHour":"20:00","Name":"  מועדון                                             ","City":"ציפורי","Street":"","NumHouse":"","AccountType":"","lon":35.276351,"lat":32.746748},{"DateDonation":"2020-10-19T00:00:00","FromHour":"10:00","ToHour":"16:30","Name":"משביר י-ם","City":"ירושלים","Street":"המלך ג'ורג'","NumHouse":"20","AccountType":"","lon":35.21602,"lat":31.78153},{"DateDonation":"2020-10-20T00:00:00","FromHour":"10:00","ToHour":"16:30","Name":"משביר י-ם","City":"ירושלים","Street":"המלך ג'ורג'","NumHouse":"20","AccountType":"","lon":35.21602,"lat":31.78153},{"DateDonation":"2020-10-20T00:00:00","FromHour":"16:00","ToHour":"22:00","Name":"המתנ\"ס החדש ","City":"צורן","Street":"דרך לב השרון פינת השקמה ","NumHouse":"","AccountType":"","lon":34.945224,"lat":32.287673},{"DateDonation":"2020-10-20T00:00:00","FromHour":"08:00","ToHour":"18:00","Name":"","City":"רמת גן","Street":"בית חולים תה\"ש","NumHouse":"","AccountType":" - שרותי הדם מד\"א","lon":34.842852,"lat":32.04671},{"DateDonation":"2020-10-21T00:00:00","FromHour":"08:00","ToHour":"14:30","Name":"","City":"רמת גן","Street":"בית חולים תה\"ש","NumHouse":"","AccountType":" - שרותי הדם מד\"א","lon":34.842852,"lat":32.04671},{"DateDonation":"2020-10-21T00:00:00","FromHour":"10:00","ToHour":"16:30","Name":"משביר י-ם","City":"ירושלים","Street":"המלך ג'ורג'","NumHouse":"20","AccountType":"","lon":35.21602,"lat":31.78153},{"DateDonation":"2020-10-22T00:00:00","FromHour":"10:00","ToHour":"16:30","Name":"משביר י-ם","City":"ירושלים","Street":"המלך ג'ורג'","NumHouse":"20","AccountType":"","lon":35.21602,"lat":31.78153},{"DateDonation":"2020-10-22T00:00:00","FromHour":"08:00","ToHour":"14:30","Name":"","City":"רמת גן","Street":"בית חולים תה\"ש","NumHouse":"","AccountType":" - שרותי הדם מד\"א","lon":34.842852,"lat":32.04671},{"DateDonation":"2020-10-23T00:00:00","FromHour":"08:00","ToHour":"12:30","Name":"","City":"רמת גן","Street":"בית חולים תה\"ש","NumHouse":"","AccountType":" - שרותי הדם מד\"א","lon":34.842852,"lat":32.04671},{"DateDonation":"2020-10-23T00:00:00","FromHour":"08:00","ToHour":"12:30","Name":"","City":"פתח תקווה","Street":"המכבים","NumHouse":"30","AccountType":" - תחנת מד\"א","lon":34.8865866,"lat":32.0975083},{"DateDonation":"2020-10-23T00:00:00","FromHour":"08:00","ToHour":"12:30","Name":"","City":"כפר סבא","Street":"טשרנחובסקי","NumHouse":"51","AccountType":" - תחנת מד\"א","lon":34.8965718,"lat":32.1803678},{"DateDonation":"2020-10-23T00:00:00","FromHour":"08:00","ToHour":"12:30","Name":"","City":"אשקלון","Street":"התחיה","NumHouse":"1","AccountType":" - תחנת מד\"א","lon":34.5893259,"lat":31.6599003},{"DateDonation":"2020-10-23T00:00:00","FromHour":"08:30","ToHour":"12:30","Name":"","City":"נתניה","Street":"מינץ","NumHouse":"7","AccountType":" - תחנת מד\"א","lon":34.8645215,"lat":32.3284579},{"DateDonation":"2020-10-23T00:00:00","FromHour":"08:00","ToHour":"12:30","Name":"","City":"קרית מוצקין","Street":"החשמונאים","NumHouse":"75","AccountType":" - תחנת מד\"א","lon":35.0802042,"lat":32.8440668},{"DateDonation":"2020-10-23T00:00:00","FromHour":"08:00","ToHour":"12:30","Name":"","City":"רחובות","Street":"0363","NumHouse":"69","AccountType":" - תחנת מד\"א","lon":34.811272,"lat":31.892773},{"DateDonation":"2020-10-23T00:00:00","FromHour":"09:00","ToHour":"12:45","Name":"משביר י-ם","City":"ירושלים","Street":"המלך ג'ורג'","NumHouse":"20","AccountType":"","lon":35.21602,"lat":31.78153},{"DateDonation":"2020-10-25T00:00:00","FromHour":"10:00","ToHour":"16:30","Name":"משביר י-ם","City":"ירושלים","Street":"המלך ג'ורג'","NumHouse":"20","AccountType":"","lon":35.21602,"lat":31.78153},{"DateDonation":"2020-10-25T00:00:00","FromHour":"08:00","ToHour":"14:30","Name":"","City":"רמת גן","Street":"בית חולים תה\"ש","NumHouse":"","AccountType":" - שרותי הדם מד\"א","lon":34.842852,"lat":32.04671},{"DateDonation":"2020-10-26T00:00:00","FromHour":"08:00","ToHour":"14:30","Name":"","City":"רמת גן","Street":"בית חולים תה\"ש","NumHouse":"","AccountType":" - שרותי הדם מד\"א","lon":34.842852,"lat":32.04671},{"DateDonation":"2020-10-26T00:00:00","FromHour":"10:00","ToHour":"16:30","Name":"משביר י-ם","City":"ירושלים","Street":"המלך ג'ורג'","NumHouse":"20","AccountType":"","lon":35.21602,"lat":31.78153},{"DateDonation":"2020-10-27T00:00:00","FromHour":"08:00","ToHour":"18:00","Name":"","City":"רמת גן","Street":"בית חולים תה\"ש","NumHouse":"","AccountType":" - שרותי הדם מד\"א","lon":34.842852,"lat":32.04671},{"DateDonation":"2020-10-27T00:00:00","FromHour":"10:00","ToHour":"16:30","Name":"משביר י-ם","City":"ירושלים","Street":"המלך ג'ורג'","NumHouse":"20","AccountType":"","lon":35.21602,"lat":31.78153},{"DateDonation":"2020-10-28T00:00:00","FromHour":"10:00","ToHour":"16:30","Name":"משביר י-ם","City":"ירושלים","Street":"המלך ג'ורג'","NumHouse":"20","AccountType":"","lon":35.21602,"lat":31.78153},{"DateDonation":"2020-10-28T00:00:00","FromHour":"08:00","ToHour":"14:30","Name":"","City":"רמת גן","Street":"בית חולים תה\"ש","NumHouse":"","AccountType":" - שרותי הדם מד\"א","lon":34.842852,"lat":32.04671},{"DateDonation":"2020-10-29T00:00:00","FromHour":"10:00","ToHour":"16:30","Name":"משביר י-ם","City":"ירושלים","Street":"המלך ג'ורג'","NumHouse":"20","AccountType":"","lon":35.21602,"lat":31.78153},{"DateDonation":"2020-10-29T00:00:00","FromHour":"08:00","ToHour":"14:30","Name":"","City":"רמת גן","Street":"בית חולים תה\"ש","NumHouse":"","AccountType":" - שרותי הדם מד\"א","lon":34.842852,"lat":32.04671},{"DateDonation":"2020-10-30T00:00:00","FromHour":"09:00","ToHour":"12:45","Name":"משביר י-ם","City":"ירושלים","Street":"המלך ג'ורג'","NumHouse":"20","AccountType":"","lon":35.21602,"lat":31.78153},{"DateDonation":"2020-10-30T00:00:00","FromHour":"08:00","ToHour":"12:30","Name":"","City":"רמת גן","Street":"בית חולים תה\"ש","NumHouse":"","AccountType":" - שרותי הדם מד\"א","lon":34.842852,"lat":32.04671},{"DateDonation":"2020-10-30T00:00:00","FromHour":"08:00","ToHour":"12:30","Name":"","City":"רחובות","Street":"0363","NumHouse":"69","AccountType":" - תחנת מד\"א","lon":34.811272,"lat":31.892773},{"DateDonation":"2020-10-30T00:00:00","FromHour":"08:00","ToHour":"12:30","Name":"","City":"קרית מוצקין","Street":"החשמונאים","NumHouse":"75","AccountType":" - תחנת מד\"א","lon":35.0802042,"lat":32.8440668},{"DateDonation":"2020-10-30T00:00:00","FromHour":"08:00","ToHour":"12:30","Name":"","City":"כפר סבא","Street":"טשרנחובסקי","NumHouse":"51","AccountType":" - תחנת מד\"א","lon":34.8965718,"lat":32.1803678},{"DateDonation":"2020-10-30T00:00:00","FromHour":"08:00","ToHour":"12:30","Name":"","City":"אשקלון","Street":"התחיה","NumHouse":"1","AccountType":" - תחנת מד\"א","lon":34.5893259,"lat":31.6599003},{"DateDonation":"2020-10-30T00:00:00","FromHour":"08:30","ToHour":"12:30","Name":"","City":"נתניה","Street":"מינץ","NumHouse":"7","AccountType":" - תחנת מד\"א","lon":34.8645215,"lat":32.3284579},{"DateDonation":"2020-10-30T00:00:00","FromHour":"08:00","ToHour":"12:30","Name":"  חדר התרמות                                         ","City":"פתח תקווה","Street":"המכבים","NumHouse":"30","AccountType":" - תחנת מד\"א","lon":34.8865866,"lat":32.0975083},{"DateDonation":"2020-11-08T00:00:00","FromHour":"15:00","ToHour":"21:30","Name":"מרכז קזז לצעירים","City":"אור יהודה","Street":"סיני","NumHouse":"15","AccountType":"","lon":34.8518807,"lat":32.0252652},{"DateDonation":"2020-11-13T00:00:00","FromHour":"09:00","ToHour":"13:30","Name":"כורזין ליד בנק הפועלים","City":"גבעתיים","Street":"כורזין","NumHouse":"","AccountType":"","lon":34.816523,"lat":32.0596894},{"DateDonation":"2020-12-04T00:00:00","FromHour":"09:00","ToHour":"13:30","Name":"כורזין ליד בנק הפועלים","City":"גבעתיים","Street":"כורזין","NumHouse":"","AccountType":"","lon":34.816523,"lat":32.0596894},{"DateDonation":"2021-01-15T00:00:00","FromHour":"09:00","ToHour":"13:30","Name":"כורזין ליד בנק הפועלים","City":"גבעתיים","Street":"כורזין","NumHouse":"","AccountType":"","lon":34.816523,"lat":32.0596894},{"DateDonation":"2021-01-18T00:00:00","FromHour":"08:30","ToHour":"14:00","Name":"בי\"ס אלדד נתניה","City":"נתניה","Street":"ש\"ד גולדה מאיר","NumHouse":"109","AccountType":"","lon":34.8526946,"lat":32.2779514},{"DateDonation":"2021-02-12T00:00:00","FromHour":"09:00","ToHour":"13:30","Name":"כורזין ליד בנק הפועלים","City":"גבעתיים","Street":"כורזין","NumHouse":"","AccountType":"","lon":34.816523,"lat":32.0596894},{"DateDonation":"2021-03-04T00:00:00","FromHour":"08:30","ToHour":"14:00","Name":"בי\"ס בן גוריון נס ציונה","City":"נס ציונה","Street":"ההסתדרות","NumHouse":"62","AccountType":"","lon":34.7925541,"lat":31.9321392},{"DateDonation":"2021-03-19T00:00:00","FromHour":"09:00","ToHour":"13:30","Name":"כורזין ליד בנק הפועלים","City":"גבעתיים","Street":"כורזין","NumHouse":"","AccountType":"","lon":34.816523,"lat":32.0596894},{"DateDonation":"2021-04-23T00:00:00","FromHour":"09:00","ToHour":"13:30","Name":"כורזין ליד בנק הפועלים","City":"גבעתיים","Street":"כורזין","NumHouse":"","AccountType":"","lon":34.816523,"lat":32.0596894},{"DateDonation":"2021-05-14T00:00:00","FromHour":"08:30","ToHour":"14:00","Name":"  רחבת הבנים                                         ","City":"הוד השרון","Street":"הבנים","NumHouse":"","AccountType":"","lon":34.8845912,"lat":32.1562671},{"DateDonation":"2021-05-14T00:00:00","FromHour":"08:30","ToHour":"14:00","Name":"  מגדיאל                                             ","City":"הוד השרון","Street":"מגדיאל","NumHouse":"67","AccountType":"","lon":34.9023055,"lat":32.1602771},{"DateDonation":"2021-05-14T00:00:00","FromHour":"08:30","ToHour":"14:00","Name":"  מגדיאל                                             ","City":"הוד השרון","Street":"מגדיאל","NumHouse":"67","AccountType":"","lon":34.9023055,"lat":32.1602771},{"DateDonation":"2021-05-14T00:00:00","FromHour":"08:30","ToHour":"14:00","Name":"  רחבת הבנים                                         ","City":"הוד השרון","Street":"הבנים","NumHouse":"","AccountType":"","lon":34.8845912,"lat":32.1562671},{"DateDonation":"2021-05-21T00:00:00","FromHour":"09:00","ToHour":"13:30","Name":"כורזין ליד בנק הפועלים","City":"גבעתיים","Street":"כורזין","NumHouse":"","AccountType":"","lon":34.816523,"lat":32.0596894},{"DateDonation":"2021-06-18T00:00:00","FromHour":"09:00","ToHour":"13:30","Name":"כורזין ליד בנק הפועלים","City":"גבעתיים","Street":"כורזין","NumHouse":"","AccountType":"","lon":34.816523,"lat":32.0596894},{"DateDonation":"2021-07-16T00:00:00","FromHour":"09:00","ToHour":"13:30","Name":"כורזין ליד בנק הפועלים","City":"גבעתיים","Street":"כורזין","NumHouse":"","AccountType":"","lon":34.816523,"lat":32.0596894},{"DateDonation":"2021-08-13T00:00:00","FromHour":"09:00","ToHour":"13:30","Name":"כורזין ליד בנק הפועלים","City":"גבעתיים","Street":"כורזין","NumHouse":"","AccountType":"","lon":34.816523,"lat":32.0596894}]